name,lat,lon,geometry,x_nm,x_dist
[부산 갈맷길 2코스] 2구간 민락교~오륙도,35.1618263,129.1325241,POINT (129.1325241 35.1618263),민락수변공원 공영주차장,779.3
168계단 / 모노레일,35.1174693,129.0354094,POINT (129.0354094 35.1174693),초1-1(주거지),35.8
25의용단,35.1715398,129.113594,POINT (129.113594 35.1715398),망미동노외공영주차장,1404.8
40계단 문화관,35.1050159,129.0345312,POINT (129.0345312 35.1050159),부산우체국 뒤 공영주차장,86.3
40계단 문화관광테마거리,35.1048438,129.0375849,POINT (129.0375849 35.1048438),유창빌딩 앞 공영주차장,108.2
75광장,35.0791482,129.0537646,POINT (129.0537646 35.0791482),하늘전망대앞,574.6
가덕도,35.0526206,128.8310012,POINT (128.8310012 35.0526206),녹산산단공영주차장,3578.3
가덕도 등대,34.9902946,128.8288642,POINT (128.8288642 34.9902946),대항공영 주차장,2419.1
가덕도 연대봉/연태봉,35.0268467,128.8341087,POINT (128.8341087 35.0268467),대항공영 주차장,1682.4
가덕도 외양포 포진지,35.0061867,128.8249547,POINT (128.8249547 35.0061867),대항공영 주차장,798.2
가덕해양파크휴게소,35.0232749,128.8081041,POINT (128.8081041 35.0232749),대항공영 주차장,2352.4
가야산책공원,35.1478529,129.0273344,POINT (129.0273344 35.1478529),가야공원,238.6
감만시민공원,35.109648,129.068746,POINT (129.068746 35.109648),청학시장,1668.7
감지해변,35.0598613,129.0775175,POINT (129.0775175 35.0598613),태종대유원지부설주차장,508.7
감천문화마을골목축제,35.0962711,129.009441,POINT (129.009441 35.0962711),보수복개천 공영주차장,1407.4
감천항,35.0833707,128.9982069,POINT (128.9982069 35.0833707),자갈치 공영주차장,2920.8
강서낙동강변30리벚꽃축제,35.2072144,128.9798273,POINT (128.9798273 35.2072144),삼락재첩거리주변,1628.8
갤러리 ERD 부산,35.1610212,129.163979,POINT (129.163979 35.1610212),해우주차장,123.1
곰내연밭,35.2953712,129.169533,POINT (129.169533 35.2953712),정관읍 상업지역 노상주차장,2796.6
공수어촌체험마을,35.184442,129.2111896,POINT (129.2111896 35.184442),송정호안도로,701.1
관수옥과 초량왜관 터,35.1007009,129.0323127,POINT (129.0323127 35.1007009),용두산 공영주차장,202.7
관음사,35.1093702,128.9763205,POINT (128.9763205 35.1093702),엄궁외식1번가주변,2084.5
광복로패션거리,35.0985271,129.0303681,POINT (129.0303681 35.0985271),자갈치시장 앞 공영주차장,210.5
광안리 SUP Zone 해양레포츠센터,35.1456754,129.1134193,POINT (129.1134193 35.1456754),광안리해수욕장 공영주차장,691.1
광안리어방축제,35.15106,129.1167741,POINT (129.1167741 35.15106),광안리해수욕장 공영주차장,75.5
광안리패들보드,35.146157,129.1133864,POINT (129.1133864 35.146157),광안리해수욕장 공영주차장,642.6
광안리해수욕장,35.1531696,129.118666,POINT (129.118666 35.1531696),광안리해수욕장 공영주차장,296.9
구덕 민속예술관,35.1217413,129.0169653,POINT (129.0169653 35.1217413),수5-1(주거지),1163.9
구덕문화공원,35.1264175,129.0049919,POINT (129.0049919 35.1264175),학장천공영주차장,2333.6
구덕야영장,35.1270353,129.0113636,POINT (129.0113636 35.1270353),수5-1(주거지),1838.6
구포 무장애숲길,35.1990906,129.0013807,POINT (129.0013807 35.1990906),모라중학교 지하(노외),1263.5
구포 어린이교통공원,35.2008077,128.9997501,POINT (128.9997501 35.2008077),모라중학교 지하(노외),1338.7
구포만세역사테마거리,35.2079261,129.0001602,POINT (129.0001602 35.2079261),삼락재첩거리주변,2072.9
국립달음산자연휴양림,35.3015837,129.185463,POINT (129.185463 35.3015837),정관읍 상업지역 노상주차장,2132.1
국립부산과학관,35.21297,129.2218214,POINT (129.2218214 35.21297),구 국민은행 옆 주변 복개도로,3320.5
국립부산국악원,35.1713738,129.0543865,POINT (129.0543865 35.1713738),유원오피스텔 뒤,1293.9
국립일제강제동원역사관,35.1238395,129.0923986,POINT (129.0923986 35.1238395),유엔평화로 153번길,558.4
국립해양박물관,35.0807489,129.0791699,POINT (129.0791699 35.0807489),하수종말처리장옆,665.8
국제크루즈터미널,35.0807489,129.0791699,POINT (129.0791699 35.0807489),하수종말처리장옆,665.8
국청사,35.2536237,129.054801,POINT (129.054801 35.2536237),두실공영주차장,3140.9
그린레일웨이,35.1714481,129.1970787,POINT (129.1970787 35.1714481),주차장,322.9
금강공원,35.219909,129.0761736,POINT (129.0761736 35.219909),금강공원공영주차장,347.0
금강식물원,35.2254714,129.076169,POINT (129.076169 35.2254714),금강공원공영주차장,309.0
금련산,35.1616667,129.0961111,POINT (129.0961111 35.1616667),황금로 공영주차장,970.3
금수사,35.120194,129.0296217,POINT (129.0296217 35.120194),수5-1(주거지),42.9
금정사,35.2215679,129.0746039,POINT (129.0746039 35.2215679),금강공원공영주차장,291.9
금정산 (금정산성 동문),35.2830419,129.0554739,POINT (129.0554739 35.2830419),범어사상마공영주차장,1746.1
금정산성,35.2553994,129.0528395,POINT (129.0528395 35.2553994),두실공영주차장,3329.2
금정산성 막걸리,35.2504164,129.0564792,POINT (129.0564792 35.2504164),두실공영주차장,3001.7
금정산성마을 먹거리촌,35.2528764,129.0557452,POINT (129.0557452 35.2528764),두실공영주차장,3054.4
금정산성축제,35.2326161,129.0892222,POINT (129.0892222 35.2326161),온천장북측공영주차장,0.0
기장갯마을축제,35.263326,129.2338902,POINT (129.2338902 35.263326),일광면사무소주변,171.8
기장멸치축제,35.2248918,129.2299358,POINT (129.2299358 35.2248918),신천리공영주차장,2112.8
기장붕장어축제,35.2972408,129.2584294,POINT (129.2584294 35.2972408),좌천 재래시장,1923.4
기장해녀촌(연화리횟촌),35.2183624,129.2280722,POINT (129.2280722 35.2183624),신천리공영주차장,2789.0
기장향교,35.2575366,129.2158992,POINT (129.2158992 35.2575366),포스코아파트 앞 주변도로,1040.2
김민부전망대,35.1176852,129.0352497,POINT (129.0352497 35.1176852),초1-1(주거지),60.2
깡깡이 예술마을,35.0926551,129.0349146,POINT (129.0349146 35.0926551),토토볼링장앞,162.1
낙동강 생태탐방선,35.109748,128.9491877,POINT (128.9491877 35.109748),엄궁외식1번가주변,2479.5
낙동강구포나루축제,35.2266865,129.0035081,POINT (129.0035081 35.2266865),삼락재첩거리주변,4029.2
낙동강문화관,35.1082572,128.947434,POINT (128.947434 35.1082572),엄궁외식1번가주변,2709.4
낙동강생태탐방선,35.2266865,129.0035081,POINT (129.0035081 35.2266865),삼락재첩거리주변,4029.2
낙동강유채꽃축제,35.2098957,128.9842032,POINT (128.9842032 35.2098957),삼락재첩거리주변,1837.1
낙동강하구,35.1070944,128.9525113,POINT (128.9525113 35.1070944),엄궁외식1번가주변,2536.8
낙동강하구에코센터,35.104497,128.9459942,POINT (128.9459942 35.104497),엄궁외식1번가주변,3114.2
남도해양관광열차 S-트레인(S-train),35.1170576,129.0436878,POINT (129.0436878 35.1170576),왕자빌딩앞,108.1
남선창고터,35.1167718,129.0395023,POINT (129.0395023 35.1167718),차이나타운,221.1
남파랑길,35.1023458,129.1229897,POINT (129.1229897 35.1023458),부산성모병원 주차장,1528.3
내원정사,35.1281432,129.0115557,POINT (129.0115557 35.1281432),수5-1(주거지),1880.1
녹산고향동산,35.1565815,128.8845211,POINT (128.8845211 35.1565815),김해주차장,6404.6
놀이마루,35.1561824,129.063288,POINT (129.063288 35.1561824),경남공고 뒤,280.9
누리마루 APEC하우스,35.1523864,129.1513029,POINT (129.1513029 35.1523864),동백공원공영주차장,300.6
누리바라기전망대,35.0907458,129.0202893,POINT (129.0202893 35.0907458),자갈치 공영주차장,817.6
다대수영장,35.0556365,128.9674986,POINT (128.9674986 35.0556365),남항방파제,6986.1
다대포 꿈의 낙조분수,35.0457857,128.968704,POINT (128.968704 35.0457857),남항방파제,7478.7
다대포항,35.0568174,128.979237,POINT (128.979237 35.0568174),남항방파제,5994.5
다대포해수욕장,35.0469015,128.9662387,POINT (128.9662387 35.0469015),남항방파제,7590.7
다이아몬드베이,35.1295917,129.11584,POINT (129.11584 35.1295917),용호부두 공영주차장,0.0
닥밭골 벽화마을,35.1142737,129.0235466,POINT (129.0235466 35.1142737),대청 공영주차장,757.7
달맞이길,35.1563753,129.1802633,POINT (129.1802633 35.1563753),스카이문주차장,313.2
달맞이동산,35.1624207,129.1782858,POINT (129.1782858 35.1624207),해월정 달맞이길 공영,0.0
당산,35.117236,129.0344454,POINT (129.0344454 35.117236),초2-1(주거지),59.8
대각사,35.1010159,129.0306802,POINT (129.0306802 35.1010159),국제시장로 1구간 공영주차장,238.7
대변마을,35.2247882,129.2303769,POINT (129.2303769 35.2247882),신천리공영주차장,2134.9
대신공원,35.1207576,129.0142609,POINT (129.0142609 35.1207576),수5-1(주거지),1394.7
대연수목전시원,35.1255017,129.0989283,POINT (129.0989283 35.1255017),유엔평화로 153번길,237.7
대저생태공원,35.2048909,128.982775,POINT (128.982775 35.2048909),삼락재첩거리주변,1306.0
대저수문 생태공원,35.229945,128.992266,POINT (128.992266 35.229945),금호주차장,3600.0
대저캠핑장,35.2135357,128.9986046,POINT (128.9986046 35.2135357),삼락재첩거리주변,2518.5
대저토마토축제/강서체육공원,35.209882,128.972345,POINT (128.972345 35.209882),금호주차장,1708.6
대천공원,35.1811394,129.167494,POINT (129.167494 35.1811394),대천공원공영주차장,308.3
대천천,35.2432716,129.0257187,POINT (129.0257187 35.2432716),금강공원공영주차장,5221.6
대항 어촌체험 휴양마을,35.0116687,128.8276787,POINT (128.8276787 35.0116687),대항공영 주차장,214.7
대항선착장,35.0122243,128.8273637,POINT (128.8273637 35.0122243),대항공영 주차장,239.3
대항전망대,35.019448,128.8328216,POINT (128.8328216 35.019448),대항공영 주차장,858.6
더무빙카라반,35.3222464,129.2695705,POINT (129.2695705 35.3222464),임랑해수욕장 주변 행정봉사실 옆,633.2
더베이101,35.1560938,129.1520503,POINT (129.1520503 35.1560938),동백공원공영주차장,119.3
델타루 (에코델타시티 전망대),35.1363089,128.9218285,POINT (128.9218285 35.1363089),위생처리장주변,4235.9
동래 베네스트 골프클럽,35.2651143,129.1006516,POINT (129.1006516 35.2651143),온천천복개도로노상공영주차장,1262.0
동래복천동고분,35.2074338,129.0917907,POINT (129.0917907 35.2074338),사적공원공영주차장,481.8
동래온천(허심청),35.219814,129.0820719,POINT (129.0820719 35.219814),금강공원공영주차장,545.4
동래온천길(온천천 산책코스),35.1915884,129.1024469,POINT (129.1024469 35.1915884),한양아파트 앞 공영주차장,391.3
동래읍성 역사축제,35.2118622,129.0899982,POINT (129.0899982 35.2118622),사적공원공영주차장,144.5
동래읍성지,35.21006,129.0901886,POINT (129.0901886 35.21006),사적공원공영주차장,165.0
동래향교,35.207679,129.0840645,POINT (129.0840645 35.207679),동래시장공영주차장,399.7
동삼동패총전시관,35.0712598,129.0797817,POINT (129.0797817 35.0712598),태종대유원지부설주차장,1069.5
두도,35.0532528,129.0143116,POINT (129.0143116 35.0532528),절영해안산책로앞,3951.1
두송반도,35.0444118,128.9985684,POINT (128.9985684 35.0444118),절영해안산책로앞,5636.6
땅뫼산,35.2455155,129.1174151,POINT (129.1174151 35.2455155),구서동만남의광장공영주차장,2061.8
라라라페스티벌,35.229771,129.089356,POINT (129.089356 35.229771),온천장북측공영주차장,316.0
마린시티,35.1554007,129.146083,POINT (129.146083 35.1554007),동백공원공영주차장,504.7
마하사,35.1636225,129.0875541,POINT (129.0875541 35.1636225),황금로 공영주차장,1022.3
만덕고개 누리길 전망데크,35.2143228,129.0571777,POINT (129.0571777 35.2143228),금강공원공영주차장,2070.9
만들숲,35.1587335,129.063596,POINT (129.063596 35.1587335),경남공고 뒤,563.3
맥도생태공원,35.1498233,128.9558365,POINT (128.9558365 35.1498233),한국강관주변,1577.0
명지동근린공원,35.0867671,128.9042158,POINT (128.9042158 35.0867671),녹산산단공영주차장,5852.5
명지시장전어축제,35.1128079,128.9313292,POINT (128.9313292 35.1128079),엄궁외식1번가주변,3601.1
모노플렉스 오시리아,35.2445494,129.2221542,POINT (129.2221542 35.2445494),군청사부설주차장,135.9
몰운대,35.0387815,128.968995,POINT (128.968995 35.0387815),남항방파제,7942.6
묘관음사,35.3230792,129.2660433,POINT (129.2660433 35.3230792),임랑해수욕장 주변 행정봉사실 옆,501.8
문탠로드,35.1574096,129.1755364,POINT (129.1755364 35.1574096),서목주차장,239.2
물빛색스튜디오,35.2093593,128.9797652,POINT (128.9797652 35.2093593),삼락재첩거리주변,1856.3
뮤지엄 원,35.17369,129.126901,POINT (129.126901 35.17369),센텀Q주차장,435.1
미륵사,35.274003,129.0489825,POINT (129.0489825 35.274003),범어사상마공영주차장,2391.2
미포,35.1592786,129.1699201,POINT (129.1699201 35.1592786),미포주차장,61.0
미포철길,35.1599565,129.1708304,POINT (129.1708304 35.1599565),미포주차장,64.7
민락수변공원,35.1566083,129.1318919,POINT (129.1318919 35.1566083),민락수변공원 공영주차장,206.5
밀락더마켓,35.1546984,129.1260303,POINT (129.1260303 35.1546984),민락매립지 공영주차장,115.3
박태준기념관,35.3165417,129.2614979,POINT (129.2614979 35.3165417),장안읍 임랑리 아름마을,164.4
백산기념관,35.1019607,129.0345836,POINT (129.0345836 35.1019607),부산데파트 뒤 공영주차장,117.2
백양산,35.1832688,129.0264852,POINT (129.0264852 35.1832688),모라중학교 지하(노외),3179.8
백양산 웰빙숲,35.1849064,129.0093018,POINT (129.0093018 35.1849064),모라중학교 지하(노외),1629.9
범어사,35.283955,129.0685428,POINT (129.0685428 35.283955),범어사상마공영주차장,690.9
범어사 성보박물관,35.283955,129.0685428,POINT (129.0685428 35.283955),범어사상마공영주차장,690.9
범어사 템플스테이,35.283955,129.0685428,POINT (129.0685428 35.283955),범어사상마공영주차장,690.9
법륜사,35.2039973,129.0880372,POINT (129.0880372 35.2039973),동래시장공영주차장,186.2
베리굿농장체험,35.3080303,129.1149962,POINT (129.1149962 35.3080303),스포원 주차장(동측),2084.7
벡스코(BEXCO),35.1679229,129.1356974,POINT (129.1356974 35.1679229),센텀Q주차장,672.0
보람공원,35.088318,128.8435819,POINT (128.8435819 35.088318),녹산산단공영주차장,574.8
보수동책방골목문화축제,35.1064758,129.0263952,POINT (129.0263952 35.1064758),대청 공영주차장,317.2
복천박물관,35.2083599,129.0914505,POINT (129.0914505 35.2083599),사적공원공영주차장,380.9
봉래산,35.0819546,129.0552017,POINT (129.0552017 35.0819546),신선스카이웨이,820.3
부산 가톨릭 특성화 거리,35.2448396,129.0978032,POINT (129.0978032 35.2448396),구서동만남의광장공영주차장,368.5
부산 가톨릭센터,35.1042682,129.0285482,POINT (129.0285482 35.1042682),보수 공영주차장,61.5
부산 감천문화마을,35.0978098,129.0092395,POINT (129.0092395 35.0978098),보수복개천 공영주차장,1377.5
부산 강서문화원,35.2122,128.9804979,POINT (128.9804979 35.2122),삼락재첩거리주변,2143.0
부산 부평 족발 골목,35.0991985,129.0264478,POINT (129.0264478 35.0991985),광복로 부평동구간 공영주차장,43.3
부산 송도해상케이블카,35.0762892,129.0234199,POINT (129.0234199 35.0762892),남항방파제,1465.9
부산 스마트시티 전시관,35.1728897,129.1307199,POINT (129.1307199 35.1728897),센텀Q주차장,79.5
부산 아시아드주경기장,35.1896429,129.0569842,POINT (129.0569842 35.1896429),시티타워 뒤 공영주차장,2039.1
부산 영화의 전당,35.1711778,129.1271956,POINT (129.1271956 35.1711778),센텀Q주차장,446.2
부산 자갈치 양곱창 골목,35.097234,129.0274542,POINT (129.0274542 35.097234),자갈치 공영주차장,159.8
부산 치유의 숲,35.2667462,129.1263909,POINT (129.1263909 35.2667462),온천천복개도로노상공영주차장,3410.3
부산 칠드런스 뮤지엄,35.2188193,129.2313695,POINT (129.2313695 35.2188193),신천리공영주차장,2797.8
부산 트릭아이뮤지엄,35.101702,129.0337655,POINT (129.0337655 35.101702),용두산 공영주차장,111.6
부산 해운대도서관,35.1779728,129.1688996,POINT (129.1688996 35.1779728),대천공원공영주차장,70.1
부산고등어축제,35.0769252,129.0180734,POINT (129.0180734 35.0769252),남항방파제,1806.5
부산공간화랑,35.1577232,129.1500962,POINT (129.1500962 35.1577232),동백섬주차장,239.1
부산과학기술대학교 민속자료실,35.1947185,129.0041425,POINT (129.0041425 35.1947185),모라중학교 지하(노외),1159.3
부산광안대교,35.1771641,129.1205683,POINT (129.1205683 35.1771641),지에스타임즈스테이션센텀필주차장,813.5
부산광역시 영도도서관,35.0753352,129.0660111,POINT (129.0660111 35.0753352),영도중학교옆,367.7
부산광역시립 부전도서관,35.1558256,129.0620476,POINT (129.0620476 35.1558256),경남공고 뒤,275.0
부산광역시립 사하도서관,35.103086,128.991053,POINT (128.991053 35.103086),보수종합시장 공영주차장,2856.1
부산광역시립 중앙도서관,35.1099927,129.0270921,POINT (129.0270921 35.1099927),대청 공영주차장,184.5
부산국제록페스티벌,35.1770248,128.9776229,POINT (128.9776229 35.1770248),덕포백양공원공영주차장,1116.1
부산국제영화제,35.1711778,129.1271956,POINT (129.1271956 35.1711778),센텀Q주차장,446.2
부산근대역사관,35.1026721,129.031176,POINT (129.031176 35.1026721),용두산 공영주차장,163.6
부산남항,35.0920883,129.0373586,POINT (129.0373586 35.0920883),토토볼링장앞,256.9
부산다이아몬드타워,35.1007009,129.0323127,POINT (129.0323127 35.1007009),용두산 공영주차장,202.7
부산동명불원,35.1201235,129.1040898,POINT (129.1040898 35.1201235),유엔평화로 153번길,625.7
부산라벤더팜,35.2603167,129.1489009,POINT (129.1489009 35.2603167),반송2동 공영,3223.0
부산롯데월드,35.2445494,129.2221542,POINT (129.2221542 35.2445494),군청사부설주차장,135.9
부산민주공원,35.1100718,129.0280727,POINT (129.0280727 35.1100718),대청 공영주차장,148.7
부산바다축제,35.1896429,129.0569842,POINT (129.0569842 35.1896429),시티타워 뒤 공영주차장,2039.1
부산박물관,35.1295178,129.094151,POINT (129.094151 35.1295178),제2주거지전용주차장,375.6
부산불꽃축제,35.1526648,129.118203,POINT (129.118203 35.1526648),광안리해수욕장 공영주차장,229.5
부산비엔날레,35.1092764,128.9427503,POINT (128.9427503 35.1092764),엄궁외식1번가주변,2934.0
부산세관박물관,35.1045621,129.0385872,POINT (129.0385872 35.1045621),유창빌딩 앞 공영주차장,173.2
부산시립미술관,35.1650508,129.1347629,POINT (129.1347629 35.1650508),센텀Q주차장,923.3
부산시민공원,35.1660271,129.057532,POINT (129.057532 35.1660271),유원오피스텔 뒤,731.0
부산어린이대공원,35.1829938,129.0463494,POINT (129.0463494 35.1829938),유원오피스텔 뒤,2703.9
부산어린이워터파크 키드키득파크,35.1892737,129.0410266,POINT (129.0410266 35.1892737),시티타워 뒤 공영주차장,3492.8
부산어촌민속관,35.2335364,129.0088228,POINT (129.0088228 35.2335364),삼락재첩거리주변,4921.4
부산엑스더스카이,35.1597189,129.1696769,POINT (129.1696769 35.1597189),미포주차장,88.0
부산영화체험박물관,35.1007203,129.0341698,POINT (129.0341698 35.1007203),신한은행부산금융센터 뒤 공영주차장,194.9
부산영화촬영스튜디오,35.160915,129.1405557,POINT (129.1405557 35.160915),민락수변공원 공영주차장,1002.7
부산요트투어 3355마린,35.160915,129.1405557,POINT (129.1405557 35.160915),민락수변공원 공영주차장,1002.7
부산원도심골목길축제,35.1007009,129.0323127,POINT (129.0323127 35.1007009),용두산 공영주차장,202.7
부산원아시아페스티벌(BOF),35.1899786,129.0582686,POINT (129.0582686 35.1899786),시티타워 뒤 공영주차장,1923.1
부산자갈치축제,35.0966394,129.0305933,POINT (129.0305933 35.0966394),자갈치시장 앞 공영주차장,0.0
부산자연곤충마을,35.2216282,128.9454039,POINT (128.9454039 35.2216282),금호주차장,1070.4
부산자유회관(부산통일관),35.1822629,129.0457142,POINT (129.0457142 35.1822629),유원오피스텔 뒤,2644.9
부산점자도서관,35.1781075,128.9898274,POINT (128.9898274 35.1781075),덕포백양공원공영주차장,356.2
부산중앙공원,35.1164669,129.0277899,POINT (129.0277899 35.1164669),초6-5(주거지),375.2
부산진성공원,35.1360296,129.0613943,POINT (129.0613943 35.1360296),범일2동-업무지-5구간,0.0
부산진일신여학교,35.1348219,129.0529022,POINT (129.0529022 35.1348219),좌1-2(주거지),99.6
부산차량융합기술단(부산철도차량정비단),35.159513,129.0419293,POINT (129.0419293 35.159513),유원오피스텔 뒤,1207.1
부산푸드필름페스타,35.1618686,129.1587994,POINT (129.1587994 35.1618686),동백주차장,68.2
부산항 힐링야영장,35.11493,129.0453984,POINT (129.0453984 35.11493),왕자빌딩앞,367.7
부산항축제,35.0783256,129.0798565,POINT (129.0798565 35.0783256),하수종말처리장옆,937.7
부산해양자연사박물관,35.2219498,129.0756469,POINT (129.0756469 35.2219498),금강공원공영주차장,188.6
부산현대미술관,35.1092764,128.9427503,POINT (128.9427503 35.1092764),엄궁외식1번가주변,2934.0
북맛골,35.2370218,129.0831233,POINT (129.0831233 35.2370218),온천장북측공영주차장,740.0
브릭캠퍼스 부산,35.1920492,129.2154602,POINT (129.2154602 35.1920492),기린주차장,1337.3
비석문화마을,35.0997958,129.0125588,POINT (129.0125588 35.0997958),보수종합시장 공영주차장,1023.7
사상강변축제,35.1963367,128.9842505,POINT (128.9842505 35.1963367),삼락재첩거리주변,357.4
사상근린공원,35.1522143,128.9766915,POINT (128.9766915 35.1522143),감전중천주변,221.2
산복도로,35.1145501,129.0330424,POINT (129.0330424 35.1145501),초1-2(주거지),290.8
삼광사,35.1754288,129.0433882,POINT (129.0433882 35.1754288),유원오피스텔 뒤,2046.3
삼광사연등축제,35.1754288,129.0433882,POINT (129.0433882 35.1754288),유원오피스텔 뒤,2046.3
삼락벚꽃축제,35.1688207,128.9764729,POINT (128.9764729 35.1688207),파라곤호텔주변,835.2
삼락생태공원,35.1687484,128.9735403,POINT (128.9735403 35.1687484),파라곤호텔주변,971.6
삼락생태공원오토캠핑장,35.1688207,128.9764729,POINT (128.9764729 35.1688207),파라곤호텔주변,835.2
삼락수상레포츠타운,35.1694172,128.965698,POINT (128.965698 35.1694172),동원주차장,1355.3
삼익비치수변공원,35.1456754,129.1134193,POINT (129.1134193 35.1456754),광안리해수욕장 공영주차장,691.1
삼진어묵체험역사관,35.0929647,129.042794,POINT (129.042794 35.0929647),봉래시장,92.2
서면1번가,35.1535608,129.0582888,POINT (129.0582888 35.1535608),경남공고 뒤,476.2
서면메디컬스트리트축제,35.1542841,129.0573158,POINT (129.0573158 35.1542841),경남공고 뒤,569.0
서면미술관,35.1540272,129.062776,POINT (129.062776 35.1540272),경남공고 뒤,78.5
서프마린,35.1433894,129.1103248,POINT (129.1103248 35.1433894),남천1동 공영주차장,406.2
선암사,35.176937,129.0277633,POINT (129.0277633 35.176937),가야중복도로,2868.4
성암사,35.1456257,129.0798654,POINT (129.0798654 35.1456257),효성택시 진입로,272.7
성지곡수원지,35.1858587,129.0420056,POINT (129.0420056 35.1858587),유원오피스텔 뒤,3138.0
센텀 APEC나루공원,35.1896763,129.1209212,POINT (129.1209212 35.1896763),신라주차장,186.9
센텀시티 아이스링크,35.1687032,129.1297466,POINT (129.1297466 35.1687032),센텀Q주차장,500.4
소두방공원,35.3279169,129.1817747,POINT (129.1817747 35.3279169),정관읍상업지역노상공영주차장,676.1
소름요,35.2434287,129.2416312,POINT (129.2416312 35.2434287),신천리공영주차장,1628.3
송도 구름산책로(스카이워크),35.0753572,129.0223137,POINT (129.0223137 35.0753572),남항방파제,1610.4
송도반도,35.0699873,129.0195798,POINT (129.0195798 35.0699873),남항방파제,2221.0
송도용궁구름다리,35.0642894,129.0138732,POINT (129.0138732 35.0642894),남항방파제,3040.2
송도해수욕장,35.0754546,129.016761,POINT (129.016761 35.0754546),남항방파제,1996.1
송도해안볼레길,35.06731,129.0176327,POINT (129.0176327 35.06731),남항방파제,2564.4
송상현광장,35.1651436,129.0669205,POINT (129.0669205 35.1651436),유원오피스텔 뒤,1227.9
송정 죽도공원,35.1797209,129.2058301,POINT (129.2058301 35.1797209),송정호안도로,113.8
송정서핑학교,35.1798085,129.2003641,POINT (129.2003641 35.1798085),송정주차장,203.8
송정역,35.1810537,129.2004153,POINT (129.2004153 35.1810537),송정주차장,83.6
송정해수욕장,35.1786125,129.1997133,POINT (129.1997133 35.1786125),송정주차장,348.9
수국꽃문화축제,35.0560546,129.0889113,POINT (129.0889113 35.0560546),태종대유원지부설주차장,871.8
수리조선소길,35.0923594,129.0334742,POINT (129.0334742 35.0923594),토토볼링장앞,174.0
수미르공원,35.1006692,129.0383469,POINT (129.0383469 35.1006692),국제회관 옆 공영주차장,159.6
수산과학관,35.1922021,129.2232732,POINT (129.2232732 35.1922021),기린주차장,1990.5
수영강상설카약체험장,35.166017,129.1235985,POINT (129.1235985 35.166017),센텀Q주차장,1059.6
수영만 요트경기장,35.160915,129.1405557,POINT (129.1405557 35.160915),민락수변공원 공영주차장,1002.7
수영민속예술관,35.1710871,129.1139105,POINT (129.1139105 35.1710871),망미동노외공영주차장,1430.5
수영사적공원,35.1710871,129.1139105,POINT (129.1139105 35.1710871),망미동노외공영주차장,1430.5
스카이라인루지,35.1943634,129.2202453,POINT (129.2202453 35.1943634),기린주차장,1843.4
스파랜드 센텀시티,35.1687032,129.1297466,POINT (129.1297466 35.1687032),센텀Q주차장,500.4
스포원파크,35.2913418,129.1053512,POINT (129.1053512 35.2913418),스포원 주차장(동측),212.3
스포원파크 경륜장,35.2906193,129.1051094,POINT (129.1051094 35.2906193),스포원 주차장(동측),232.7
승학산,35.1317807,128.9853735,POINT (128.9853735 35.1317807),엄궁초등학교지하주차장,1017.3
신선대,35.1094524,129.0978349,POINT (129.0978349 35.1094524),부산성모병원 주차장,1039.6
신세계 센텀시티,35.1788264,129.1248781,POINT (129.1248781 35.1788264),지에스타임즈스테이션센텀필주차장,601.5
신평소공원,35.2940485,129.2602898,POINT (129.2602898 35.2940485),좌천 재래시장,2292.7
신호공원,35.0822862,128.8709202,POINT (128.8709202 35.0822862),녹산산단공영주차장,2813.2
씨라이프 부산아쿠아리움,35.1592713,129.1610038,POINT (129.1610038 35.1592713),흥안인더스트리,110.4
아난티코브 야외공연장,35.2188193,129.2313695,POINT (129.2313695 35.2188193),신천리공영주차장,2797.8
아미르공원,35.0744236,129.069341,POINT (129.069341 35.0744236),영도중학교옆,371.5
아미산 전망대,35.0527681,128.9607646,POINT (128.9607646 35.0527681),자갈치 공영주차장,7675.3
아홉산숲,35.2871145,129.1715058,POINT (129.1715058 35.2871145),정관읍 상업지역 노상주차장,3657.3
안데르센 동화마을,35.3584529,129.2455484,POINT (129.2455484 35.3584529),오리 대룡마을,2154.9
안심치유정원,35.2898417,129.1101998,POINT (129.1101998 35.2898417),스포원 주차장(동측),683.9
안적사,35.2141739,129.1699038,POINT (129.1699038 35.2141739),진영주차장,1661.3
암남공원,35.0625049,129.0152358,POINT (129.0152358 35.0625049),남항방파제,3123.7
약수암,35.17823,128.9965401,POINT (128.9965401 35.17823),덕포백양공원공영주차장,732.7
에덴공원,35.1099114,128.9627544,POINT (128.9627544 35.1099114),엄궁외식1번가주변,1889.3
역사의 디오라마,35.1117279,129.0312665,POINT (129.0312665 35.1117279),영주 공영주차장,128.7
영도 등대,35.0523754,129.092199,POINT (129.092199 35.0523754),태종대유원지부설주차장,1377.0
영도 조내기 고구마 역사기념관,35.0855809,129.0577029,POINT (129.0577029 35.0855809),청학스카이웨이,532.2
영도 청학배수지 전망대,35.0883701,129.0600724,POINT (129.0600724 35.0883701),청학스카이웨이,154.6
영도 하늘전망대,35.0739797,129.0541222,POINT (129.0541222 35.0739797),하늘전망대앞,0.0
영도 흰여울해안터널,35.0779066,129.0453305,POINT (129.0453305 35.0779066),절영해안산책로앞,517.2
영도관광사격장,35.0739797,129.0541222,POINT (129.0541222 35.0739797),하늘전망대앞,0.0
영도다리축제,35.0807489,129.0791699,POINT (129.0791699 35.0807489),하수종말처리장옆,665.8
영도마리나오토캠핑장,35.0999374,129.0599973,POINT (129.0599973 35.0999374),청학시장,351.9
영도커피페스티벌,35.0807489,129.0791699,POINT (129.0791699 35.0807489),하수종말처리장옆,665.8
영주하늘눈전망대,35.1145696,129.0306501,POINT (129.0306501 35.1145696),영주 공영주차장,437.4
옛백제병원,35.1163493,129.039158,POINT (129.039158 35.1163493),차이나타운,165.2
오륙도,35.0937934,129.1264236,POINT (129.1264236 35.0937934),부산성모병원 주차장,2402.3
오륙도 등대,35.0911824,129.1268428,POINT (129.1268428 35.0911824),부산성모병원 주차장,2651.4
오륙도 스카이워크,35.1004601,129.1194239,POINT (129.1194239 35.1004601),부산성모병원 주차장,1424.9
오륙도해맞이공원,35.1155121,129.115598,POINT (129.115598 35.1155121),다보네가구 주차장(부설개방),348.4
오륜대 한국순교자박물관,35.246003,129.1011063,POINT (129.1011063 35.246003),구서동만남의광장공영주차장,582.3
오륜대전망대,35.2482736,129.1132171,POINT (129.1132171 35.2482736),구서동만남의광장공영주차장,1676.8
오시리아 해안산책로,35.1964237,129.2284464,POINT (129.2284464 35.1964237),기린주차장,2610.0
옥련선원,35.1613667,129.1265806,POINT (129.1265806 35.1613667),민락매립지 공영주차장,723.2
옥정사,35.3112896,129.2223442,POINT (129.2223442 35.3112896),좌천 재래시장,1887.1
온천천시민공원,35.1816156,129.0882418,POINT (129.0882418 35.1816156),연제문화체육공원 공영주차장,408.7
올림픽동산,35.1650508,129.1347629,POINT (129.1347629 35.1650508),센텀Q주차장,923.3
외양포항,35.0051702,128.8240511,POINT (128.8240511 35.0051702),대항공영 주차장,938.0
요산문학관,35.2722691,129.0858235,POINT (129.0858235 35.2722691),금샘로노상공영주차장,105.6
요트탈래,35.1560938,129.1520503,POINT (129.1520503 35.1560938),동백공원공영주차장,119.3
용두산공원,35.1006536,129.0326226,POINT (129.0326226 35.1006536),용두산 공영주차장,201.6
용소웰빙공원,35.2463015,129.204155,POINT (129.204155 35.2463015),동양프라자 주변도로,916.5
용호동일대(낚시터),35.1155121,129.115598,POINT (129.115598 35.1155121),다보네가구 주차장(부설개방),348.4
용호별빛공원,35.1321428,129.1200872,POINT (129.1200872 35.1321428),용호부두 공영주차장,479.8
우암동 도시 숲,35.1273176,129.0741691,POINT (129.0741691 35.1273176),한일오피스텔주변,1050.2
우장춘기념관,35.2135153,129.0720353,POINT (129.0720353 35.2135153),금강공원공영주차장,1147.3
운수사,35.1842751,129.013442,POINT (129.013442 35.1842751),모라중학교 지하(노외),2008.1
울림공원,35.1015616,128.926792,POINT (128.926792 35.1015616),엄궁외식1번가주변,4605.1
월전장어구이촌,35.238079,129.2441897,POINT (129.2441897 35.238079),신천리공영주차장,1947.3
월전항방파제,35.2383088,129.2451611,POINT (129.2451611 35.2383088),신천리공영주차장,2025.0
유엔평화기념관,35.1238395,129.0923986,POINT (129.0923986 35.1238395),유엔평화로 153번길,558.4
유치환 우체통 전망대,35.1220592,129.0342041,POINT (129.0342041 35.1220592),스카이웨이,85.3
은진사,35.3357132,129.2777865,POINT (129.2777865 35.3357132),길천마을,1089.7
을숙도공원,35.1120046,128.9473498,POINT (128.9473498 35.1120046),엄궁외식1번가주변,2419.0
이기대 섭자리,35.1318453,129.1211447,POINT (129.1211447 35.1318453),용호부두 공영주차장,544.6
이기대 해안산책로,35.1321917,129.1206464,POINT (129.1206464 35.1321917),용호부두 공영주차장,524.7
이동항,35.2726135,129.2462893,POINT (129.2462893 35.2726135),일광면사무소주변,1634.2
이바구공작소,35.1171544,129.0336556,POINT (129.0336556 35.1171544),초2-1(주거지),50.2
이중섭거리,35.1394197,129.0560616,POINT (129.0560616 35.1394197),범1-6(주거지),72.7
일광해수욕장,35.2597783,129.2339709,POINT (129.2339709 35.2597783),일광해수욕장노상공영주차장,183.0
임랑카라반파크,35.3091686,129.2594192,POINT (129.2594192 35.3091686),장안읍 임랑리 아름마을,795.0
임랑해수욕장,35.3184861,129.2643145,POINT (129.2643145 35.3184861),임랑해수욕장 주변 행정봉사실 옆,57.9
임시수도기념관,35.1034532,129.0174521,POINT (129.0174521 35.1034532),보수종합시장 공영주차장,455.5
자갈치 시장,35.0966394,129.0305933,POINT (129.0305933 35.0966394),자갈치시장 앞 공영주차장,0.0
장림포구 부네치아,35.079368,128.9515836,POINT (128.9515836 35.079368),엄궁외식1번가주변,5425.0
장미원,35.2333572,129.0098884,POINT (129.0098884 35.2333572),삼락재첩거리주변,4945.6
장산,35.1944152,129.1446902,POINT (129.1446902 35.1944152),반여2동 제2공영,1127.0
장안사,35.3745942,129.2329263,POINT (129.2329263 35.3745942),오리 대룡마을,2938.2
장안사계곡,35.3730001,129.2324419,POINT (129.2324419 35.3730001),오리 대룡마을,2955.6
장안캠프,35.3420668,129.253249,POINT (129.253249 35.3420668),임랑해수욕장 주변 행정봉사실 옆,2748.8
재난안전체험관,35.2913418,129.1053512,POINT (129.1053512 35.2913418),스포원 주차장(동측),212.3
재한유엔기념공원 (UN기념공원),35.1277489,129.0956469,POINT (129.0956469 35.1277489),유엔평화로 153번길,549.2
전포카페거리,35.1561824,129.063288,POINT (129.063288 35.1561824),경남공고 뒤,280.9
전포커피축제,35.1561824,129.063288,POINT (129.063288 35.1561824),경남공고 뒤,280.9
절영해안산책로,35.0732314,129.0514013,POINT (129.0514013 35.0732314),하늘전망대앞,261.8
정관박물관,35.3279169,129.1817747,POINT (129.1817747 35.3279169),정관읍상업지역노상공영주차장,676.1
정관생태하천학습문화축제,35.3169318,129.1661425,POINT (129.1661425 35.3169318),정관읍 상업지역 노상주차장,1086.8
정란각/문화공감수정,35.1256395,129.042676,POINT (129.042676 35.1256395),수4-5(주거지),22.7
정인갤러리,35.0994819,129.0361624,POINT (129.0361624 35.0994819),신한은행부산금융센터 뒤 공영주차장,49.9
젖병등대,35.2138037,129.2236064,POINT (129.2236064 35.2138037),구 국민은행 옆 주변 복개도로,3257.4
제이스글램핑,35.2772827,129.2341337,POINT (129.2341337 35.2772827),일광면사무소주변,1524.8
조방해수탕,35.1418595,129.0626584,POINT (129.0626584 35.1418595),신부산빌딩 앞(소망빌딩),79.8
조선통신사역사관,35.1360296,129.0613943,POINT (129.0613943 35.1360296),범일2동-업무지-5구간,0.0
조선통신사축제,35.1360296,129.0613943,POINT (129.0613943 35.1360296),범일2동-업무지-5구간,0.0
좌수영성지,35.1709344,129.113835,POINT (129.113835 35.1709344),망미동노외공영주차장,1423.0
죽성성당,35.2411292,129.2478696,POINT (129.2478696 35.2411292),신천리공영주차장,2208.8
죽성항/황학대,35.242349,129.2468819,POINT (129.2468819 35.242349),신천리공영주차장,2108.7
중앙공원,35.3205744,129.1807934,POINT (129.1807934 35.3205744),정관읍 구연로 40,261.9
중앙해수랜드,35.1256135,129.1106458,POINT (129.1106458 35.1256135),용호부두 공영주차장,647.5
지오클럽카라반파크,35.2578838,129.2351956,POINT (129.2351956 35.2578838),일광해수욕장노상공영주차장,421.0
차성문화제,35.2726245,129.1551824,POINT (129.1551824 35.2726245),반송2동 공영,4509.3
차이나타운특구 문화축제,35.1145144,129.0380695,POINT (129.0380695 35.1145144),차이나타운,83.0
창비부산,35.1163493,129.039158,POINT (129.039158 35.1163493),차이나타운,165.2
천마산하늘전망대,35.09358,129.0173755,POINT (129.0173755 35.09358),자갈치 공영주차장,848.6
천성항 방파제등대,35.0301801,128.810662,POINT (128.810662 35.0301801),대항공영 주차장,2673.6
청사포,35.1603874,129.1923456,POINT (129.1923456 35.1603874),청사포 공영,178.8
청사포 다릿돌전망대,35.1625451,129.1899803,POINT (129.1899803 35.1625451),청사포 공영,179.4
청학 수변공원,35.0976585,129.0611556,POINT (129.0611556 35.0976585),청학시장,203.3
초량 이바구길,35.1161385,129.0361922,POINT (129.0361922 35.1161385),초1-2(주거지),121.1
초량 차이나타운,35.1145144,129.0380695,POINT (129.0380695 35.1145144),차이나타운,83.0
초량교회,35.1170003,129.0368197,POINT (129.0368197 35.1170003),초1-1(주거지),103.0
초원숲속글램핑,35.3439075,129.1919812,POINT (129.1919812 35.3439075),정관 모전리 공영주차장,2255.3
추리문학관,35.1616811,129.1833273,POINT (129.1833273 35.1616811),스카이문주차장,346.2
충렬사,35.2007382,129.096243,POINT (129.096243 35.2007382),동래시장공영주차장,1014.8
친환경 스카이웨이 전망대(이바구길),35.1203301,129.0319525,POINT (129.0319525 35.1203301),초4-2(주거지),136.0
칠암항,35.2996125,129.262656,POINT (129.262656 35.2996125),장안읍 임랑리 아름마을,1874.6
카운트다운&해맞이축제,35.1586283,129.1590673,POINT (129.1590673 35.1586283),신일주차장,172.6
캐니언파크 부산,35.1422239,129.0672816,POINT (129.0672816 35.1422239),신풍상사 주변,304.2
크리스마스트리문화축제,35.0990683,129.031487,POINT (129.031487 35.0990683),건어물시장 공영주차장,250.7
키자니아 부산,35.1788264,129.1248781,POINT (129.1248781 35.1788264),지에스타임즈스테이션센텀필주차장,601.5
킴스아트필드미술관,35.2523668,129.0541277,POINT (129.0541277 35.2523668),두실공영주차장,3202.5
태종대,35.05307,129.0872,POINT (129.0872 35.05307),태종대유원지부설주차장,1068.2
태종대 전망대,35.050432,129.0884,POINT (129.0884 35.050432),태종대유원지부설주차장,1380.4
태종대스쿠버다이빙,35.0618129,129.0764693,POINT (129.0764693 35.0618129),태종대유원지부설주차장,551.9
태종대온천찜질방,35.0645327,129.0799847,POINT (129.0799847 35.0645327),태종대유원지부설주차장,373.4
태종사,35.0560546,129.0889113,POINT (129.0889113 35.0560546),태종대유원지부설주차장,871.8
통일아시아드공원,35.0556365,128.9674986,POINT (128.9674986 35.0556365),남항방파제,6986.1
팬스타부산주말원나잇크루즈,35.1211974,129.0487401,POINT (129.0487401 35.1211974),수정변전소,406.4
평화공원,35.1255561,129.0974794,POINT (129.0974794 35.1255561),유엔평화로 153번길,257.7
하리선착장,35.0709062,129.0813072,POINT (129.0813072 35.0709062),태종대유원지부설주차장,1006.8
학리방파제,35.2598832,129.2477351,POINT (129.2477351 35.2598832),일광해수욕장노상공영주차장,1344.3
한광미술관,35.1089834,129.0374377,POINT (129.0374377 35.1089834),중부소방서 뒤 공영주차장,0.0
한국기독교선교박물관,35.2015168,129.0826989,POINT (129.0826989 35.2015168),동래시장공영주차장,450.7
한국신발관,35.1573104,129.0258261,POINT (129.0258261 35.1573104),가야중복도로,686.6
해광사,35.2057008,129.2255984,POINT (129.2255984 35.2057008),송정제일주차장,2953.2
해동성취사,35.2812022,129.2544188,POINT (129.2544188 35.2812022),일광면사무소주변,2818.3
해동용궁사,35.1883491,129.2233197,POINT (129.2233197 35.1883491),송정호안도로,1870.4
해리단길,35.164921,129.157531,POINT (129.157531 35.164921),동해주차장,181.2
해안누리길 몰운대길,35.0499677,128.9614103,POINT (128.9614103 35.0499677),남항방파제,7779.6
해양스포츠교실,35.0611065,129.077245,POINT (129.077245 35.0611065),태종대유원지부설주차장,488.9
해양환경공단 해양환경교육원(부산),35.0807489,129.0791699,POINT (129.0791699 35.0807489),하수종말처리장옆,665.8
해운대 동백섬,35.1559601,129.1539819,POINT (129.1539819 35.1559601),동백섬주차장,178.4
해운대 블루라인파크,35.1625451,129.1899803,POINT (129.1899803 35.1625451),청사포 공영,179.4
해운대리버크루즈,35.1896763,129.1209212,POINT (129.1209212 35.1896763),신라주차장,186.9
해운대모래축제,35.1586283,129.1590673,POINT (129.1590673 35.1586283),신일주차장,172.6
해운대북극곰축제,35.1588322,129.159799,POINT (129.159799 35.1588322),흥안인더스트리,171.2
해운대빛축제,35.1595299,129.1624234,POINT (129.1624234 35.1595299),광장주차장,53.7
해운대수목원,35.2297427,129.1344469,POINT (129.1344469 35.2297427),제일주차장,1246.4
해운대온천센터,35.1633954,129.1645474,POINT (129.1645474 35.1633954),해운대온천센터주차장,62.5
해운대해수욕장,35.1586975,129.1603842,POINT (129.1603842 35.1586975),흥안인더스트리,170.1
해운대해양레저축제,35.1783633,129.1990386,POINT (129.1990386 35.1783633),송정주차장,400.0
해월정,35.1576828,129.1821038,POINT (129.1821038 35.1576828),스카이문주차장,113.3
해파랑길 1코스,35.1004601,129.1194239,POINT (129.1194239 35.1004601),부산성모병원 주차장,1424.9
해파랑길 2코스,35.1584212,129.1706635,POINT (129.1706635 35.1584212),미포주차장,110.6
허브랑야생화,35.2542038,129.0518188,POINT (129.0518188 35.2542038),두실공영주차장,3414.2
현대모터스튜디오 부산,35.1769907,129.1154605,POINT (129.1154605 35.1769907),지에스타임즈스테이션센텀필주차장,1072.4
혜원정사,35.1838837,129.0908696,POINT (129.0908696 35.1838837),연제문화체육공원 공영주차장,104.9
호천마을,35.1442926,129.0511564,POINT (129.0511564 35.1442926),범일4동 제2공영,172.9
홍연폭포,35.2969827,129.1665818,POINT (129.1665818 35.2969827),정관읍 상업지역 노상주차장,2711.9
화명생태공원,35.2266865,129.0035081,POINT (129.0035081 35.2266865),삼락재첩거리주변,4029.2
화명수목원,35.2510047,129.0427975,POINT (129.0427975 35.2510047),두실공영주차장,4239.2
화명수상레포츠타운,35.2195671,128.9990818,POINT (128.9990818 35.2195671),삼락재첩거리주변,3144.2
화명오토캠핑장,35.21663,128.99918,POINT (128.99918 35.21663),삼락재첩거리주변,2849.6
화명자전거교육체험장,35.2321044,129.0055894,POINT (129.0055894 35.2321044),삼락재첩거리주변,4656.6
화전공원,35.105176,128.8779201,POINT (128.8779201 35.105176),녹산산단공영주차장,4172.0
황령산,35.1571056,129.0820778,POINT (129.0820778 35.1571056),효성택시 진입로,1551.6
황령산 전망대,35.1580572,129.0822526,POINT (129.0822526 35.1580572),효성택시 진입로,1658.2
회동수원지,35.2437136,129.1204322,POINT (129.1204322 35.2437136),구서동만남의광장공영주차장,2359.3
회동수원지 둘레길,35.2251511,129.1167009,POINT (129.1167009 35.2251511),금사동제2공영주차장,731.7
흰여울문화마을,35.0772858,129.046452,POINT (129.046452 35.0772858),절영해안산책로앞,639.1
AREA6,35.0928012,129.0431429,POINT (129.0431429 35.0928012),봉래시장,63.7
BIFF 광장,35.0988326,129.0292093,POINT (129.0292093 35.0988326),국제시장로 1구간 공영주차장,246.6
F1963,35.1769907,129.1154605,POINT (129.1154605 35.1769907),지에스타임즈스테이션센텀필주차장,1072.4
KT&G 상상마당 부산,35.1542841,129.0573158,POINT (129.0573158 35.1542841),경남공고 뒤,569.0
UN평화축제,35.1269223,129.1008906,POINT (129.1008906 35.1269223),대연천 구거복개지,429.2
